[{"id":21,"bairro":"Alto da Boa Vista","cidade":"Rio de Janeiro","latitude":"-22.9519","longitude":"-43.2105","numero":null,"cep":"20531-590","logradouro":"Parque Nacional da Tijuca","complemento":null,"uf":"RJ","empresa_id":33},{"id":22,"bairro":"Copacabana","cidade":"Rio de Janeiro","latitude":"-22.9711","longitude":"-43.1822","numero":null,"cep":"22010-000","logradouro":"Avenida Atlântica","complemento":null,"uf":"RJ","empresa_id":33},{"id":23,"bairro":"Maracanã","cidade":"Rio de Janeiro","latitude":"-22.9121","longitude":"-43.2302","numero":null,"cep":"20271150","logradouro":"Rua Professor Eurico Rabelo","complemento":null,"uf":"RJ","empresa_id":33},{"id":24,"bairro":"Centro","cidade":"Rio de Janeiro","latitude":"-22.8959","longitude":"-43.1809","numero":null,"cep":"20081-240","logradouro":"Praça Mauá","complemento":null,"uf":"RJ","empresa_id":34},{"id":25,"bairro":"Urca","cidade":"Rio de Janeiro","latitude":"-22.9485","longitude":"-43.1565","numero":null,"cep":"57400-000","logradouro":"Avenida Pasteur","complemento":null,"uf":"RJ","empresa_id":34},{"id":26,"bairro":"Ipanema","cidade":"Rio de Janeiro","latitude":"-22.9836","longitude":"-43.2056","numero":null,"cep":"22420-002","logradouro":"Avenida Vieira Souto","complemento":null,"uf":"RJ","empresa_id":35},{"id":27,"bairro":"Centro","cidade":"Cabo Frio","latitude":"-22.8894","longitude":"-42.0243","numero":null,"cep":"48287000","logradouro":"Praia do Forte","complemento":null,"uf":"RJ","empresa_id":35},{"id":28,"bairro":"Centro","cidade":"Paraty","latitude":"-23.2221","longitude":"-44.7179","numero":null,"cep":"23970-000","logradouro":"Centro Histórico","complemento":null,"uf":"RJ","empresa_id":36},{"id":29,"bairro":"Centro","cidade":"Petrópolis","latitude":"-22.5083","longitude":"-43.1779","numero":null,"cep":"25610-320","logradouro":"Rua da Imperatriz","complemento":null,"uf":"RJ","empresa_id":36},{"id":30,"bairro":"Centro","cidade":"São Paulo","latitude":"-23.5617","longitude":"-46.6554","numero":null,"cep":"28949-794","logradouro":"Avenida Paulista","complemento":null,"uf":"SP","empresa_id":37},{"id":31,"bairro":"Centro","cidade":"Salvador","latitude":"-12.9714","longitude":"-38.5070","numero":null,"cep":"40026280","logradouro":"Centro Histórico de Salvador","complemento":null,"uf":"BA","empresa_id":37},{"id":32,"bairro":"Centro","cidade":"Ouro Preto","latitude":"-20.3853","longitude":"-43.5037","numero":null,"cep":"35417-000","logradouro":"Praça Tiradentes","complemento":null,"uf":"MG","empresa_id":37},{"id":33,"bairro":"Esplanada dos Ministérios","cidade":"Brasília","latitude":"-15.7998","longitude":"-47.8645","numero":null,"cep":"70059-900","logradouro":"Esplanada dos Ministérios","complemento":null,"uf":"DF","empresa_id":37},{"id":34,"bairro":"Centro","cidade":"Fortaleza","latitude":"-3.7318616","longitude":"-38.5266704","numero":null,"cep":"60822-975","logradouro":"Rua Pedro I","complemento":null,"uf":"CE","empresa_id":37}]